<?xml version="1.0" encoding="utf-8"?>
<ArrayOfVolunteers>
  <Volunteer>
    <Id>337107726</Id>
    <FullName>Amit Nakesh</FullName>
    <PhoneNumber>0535865899</PhoneNumber>
    <Email>amit234@gmail.com</Email>
    <Job>Volunteer</Job>
    <Active>true</Active>
    <Distance>Car</Distance>
    <VolAddress>Ha-Narkis 3,Jerusalem, Israel</VolAddress>
    <Latitude>31.7771</Latitude>
    <Longitude>35.2255</Longitude>
    <MaxDistance>3.089548516252705</MaxDistance>
  </Volunteer>
  <Volunteer>
    <Id>394502512</Id>
    <FullName>Nir Kuda</FullName>
    <PhoneNumber>0588097195</PhoneNumber>
    <Email>nirkush@walla.co.il</Email>
    <Job>Volunteer</Job>
    <Active>true</Active>
    <Distance>Walking</Distance>
    <VolAddress>Jaffa 210,Jerusalem, Israel</VolAddress>
    <Latitude>31.7814</Latitude>
    <Longitude>35.2277</Longitude>
    <MaxDistance>4.066092298893914</MaxDistance>
  </Volunteer>
  <Volunteer>
    <Id>326569506</Id>
    <FullName>Beti Bam</FullName>
    <PhoneNumber>0502284085</PhoneNumber>
    <Email>bamb@g.jct.ac.il</Email>
    <Job>Manager</Job>
    <Active>true</Active>
    <Distance>Air</Distance>
    <VolAddress>Nechama 32,Jerusalem, Israel</VolAddress>
    <Latitude>31.779</Latitude>
    <Longitude>35.2201</Longitude>
    <MaxDistance />
  </Volunteer>
  <Volunteer>
    <Id>366439057</Id>
    <FullName>Avi Ron</FullName>
    <PhoneNumber>0506034023</PhoneNumber>
    <Email>avi54@gmail.com</Email>
    <Job>Volunteer</Job>
    <Active>true</Active>
    <Distance>Car</Distance>
    <VolAddress>Bayit Va-Gan 46,Jerusalem, Israel</VolAddress>
    <Latitude>31.7798</Latitude>
    <Longitude>35.228</Longitude>
    <MaxDistance />
  </Volunteer>
  <Volunteer>
    <Id>221909518</Id>
    <FullName>Gila Zahav</FullName>
    <PhoneNumber>0501359176</PhoneNumber>
    <Email>gila43@walla.co.il</Email>
    <Job>Manager</Job>
    <Active>true</Active>
    <Distance>Car</Distance>
    <VolAddress>Ha-Pisga 90,Jerusalem, Israel</VolAddress>
    <Latitude>31.7742</Latitude>
    <Longitude>35.2116</Longitude>
    <MaxDistance />
  </Volunteer>
  <Volunteer>
    <Id>211806013</Id>
    <FullName>Ram Kol</FullName>
    <PhoneNumber>0586345885</PhoneNumber>
    <Email>rkol@gmail.com</Email>
    <Job>Volunteer</Job>
    <Active>true</Active>
    <Distance>Air</Distance>
    <VolAddress>Bar-Lev 119,Jerusalem, Israel</VolAddress>
    <Latitude>31.7725</Latitude>
    <Longitude>35.2212</Longitude>
    <MaxDistance>2.134539350976979</MaxDistance>
  </Volunteer>
  <Volunteer>
    <Id>242622991</Id>
    <FullName>Poli Din</FullName>
    <PhoneNumber>0532961996</PhoneNumber>
    <Email>poli@g.jct.ac.il</Email>
    <Job>Volunteer</Job>
    <Active>true</Active>
    <Distance>Walking</Distance>
    <VolAddress>Agron 5,Jerusalem, Israel</VolAddress>
    <Latitude>31.7808</Latitude>
    <Longitude>35.2139</Longitude>
    <MaxDistance>1.442716778682263</MaxDistance>
  </Volunteer>
  <Volunteer>
    <Id>347333900</Id>
    <FullName>Ori Gami</FullName>
    <PhoneNumber>0583796897</PhoneNumber>
    <Email>ogami@walla.co.il</Email>
    <Job>Manager</Job>
    <Active>true</Active>
    <Distance>Car</Distance>
    <VolAddress>Iben-Ezra 27,Jerusalem, Israel</VolAddress>
    <Latitude>31.7727</Latitude>
    <Longitude>35.2128</Longitude>
    <MaxDistance>2.5916438010366436</MaxDistance>
  </Volunteer>
  <Volunteer>
    <Id>347001034</Id>
    <FullName>Dina Barzily</FullName>
    <PhoneNumber>0527758199</PhoneNumber>
    <Email>barzilay@g.jct.ac.il</Email>
    <Job>Manager</Job>
    <Active>true</Active>
    <Distance>Walking</Distance>
    <VolAddress>Rivka 118,Jerusalem, Israel</VolAddress>
    <Latitude>31.7731</Latitude>
    <Longitude>35.2123</Longitude>
    <MaxDistance />
  </Volunteer>
  <Volunteer>
    <Id>247231558</Id>
    <FullName>Moise Kattan</FullName>
    <PhoneNumber>0507015757</PhoneNumber>
    <Email>Kattani98@g.jct.ac.il</Email>
    <Job>Volunteer</Job>
    <Active>true</Active>
    <Distance>Walking</Distance>
    <VolAddress>Daniel 41,Jerusalem, Israel</VolAddress>
    <Latitude>31.7756</Latitude>
    <Longitude>35.2167</Longitude>
    <MaxDistance>1.982696857355164</MaxDistance>
  </Volunteer>
  <Volunteer>
    <Id>281890186</Id>
    <FullName>Ran Amitz</FullName>
    <PhoneNumber>0583859986</PhoneNumber>
    <Email>rAmitz@gmail.com</Email>
    <Job>Volunteer</Job>
    <Active>true</Active>
    <Distance>Walking</Distance>
    <VolAddress>Ha-Sigalit 6,Jerusalem, Israel</VolAddress>
    <Latitude>31.7664</Latitude>
    <Longitude>35.215</Longitude>
    <MaxDistance />
  </Volunteer>
  <Volunteer>
    <Id>244326320</Id>
    <FullName>Jonathan Shapira</FullName>
    <PhoneNumber>0501676316</PhoneNumber>
    <Email>jShapira@walla.co.il</Email>
    <Job>Volunteer</Job>
    <Active>true</Active>
    <Distance>Car</Distance>
    <VolAddress>Shmuel Hanavi 20, Jerusalem, Israel</VolAddress>
    <Latitude>31.8017</Latitude>
    <Longitude>35.2171</Longitude>
    <MaxDistance />
  </Volunteer>
  <Volunteer>
    <Id>202821831</Id>
    <FullName>Beni Mus</FullName>
    <PhoneNumber>0586019626</PhoneNumber>
    <Email>cbh@walla.co.il</Email>
    <Job>Volunteer</Job>
    <Active>false</Active>
    <Distance>Air</Distance>
    <VolAddress>Brazil 101,Jerusalem, Israel</VolAddress>
    <Latitude>31.7682671</Latitude>
    <Longitude>35.1720837</Longitude>
    <MaxDistance>2.817249200826497</MaxDistance>
  </Volunteer>
  <Volunteer>
    <Id>261841498</Id>
    <FullName>Chani Chaim</FullName>
    <PhoneNumber>0535422809</PhoneNumber>
    <Email>chch@walla.co.il</Email>
    <Job>Volunteer</Job>
    <Active>true</Active>
    <Distance>Car</Distance>
    <VolAddress>Najara 19,Jerusalem, Israel</VolAddress>
    <Latitude>31.791511</Latitude>
    <Longitude>35.1920268</Longitude>
    <MaxDistance />
  </Volunteer>
  <Volunteer>
    <Id>288261159</Id>
    <FullName>Nurit Lady</FullName>
    <PhoneNumber>0506915749</PhoneNumber>
    <Email>perach@walla.co.il</Email>
    <Job>Volunteer</Job>
    <Active>true</Active>
    <Distance>Walking</Distance>
    <VolAddress>Dagan 5,Jerusalem, Israel</VolAddress>
    <Latitude>31.7394234</Latitude>
    <Longitude>35.1827337</Longitude>
    <MaxDistance>0.10188450777732061</MaxDistance>
  </Volunteer>
  <Volunteer>
    <Id>322714726</Id>
    <FullName>Maya Gido</FullName>
    <PhoneNumber>0588957730</PhoneNumber>
    <Email>mgido@g.jct.ac.il</Email>
    <Job>Volunteer</Job>
    <Active>false</Active>
    <Distance>Air</Distance>
    <VolAddress>Hilel 67,Jerusalem, Israel</VolAddress>
    <Latitude>31.7793535</Latitude>
    <Longitude>35.2209729</Longitude>
    <MaxDistance>1.431397588594906</MaxDistance>
  </Volunteer>
</ArrayOfVolunteers>