<?xml version="1.0" encoding="utf-8"?>
<ArrayOfVolunteers>
  <Volunteer>
    <Id>362344087</Id>
    <FullName>Amit Nakesh</FullName>
    <PhoneNumber>0506850748</PhoneNumber>
    <Email>amit234@walla.co.il</Email>
    <Job>Manager</Job>
    <Active>false</Active>
    <Distance>Car</Distance>
    <VolAddress>Ha-Narkis 3,Jerusalem, Israel</VolAddress>
    <Latitude>31.7771</Latitude>
    <Longitude>35.2255</Longitude>
    <MaxDistance />
  </Volunteer>
  <Volunteer>
    <Id>327103339</Id>
    <FullName>Nir Kuda</FullName>
    <PhoneNumber>0582477985</PhoneNumber>
    <Email>nirkush@g.jct.ac.il</Email>
    <Job>Donater</Job>
    <Active>true</Active>
    <Distance>Walking</Distance>
    <VolAddress>Jaffa 210,Jerusalem, Israel</VolAddress>
    <Latitude>31.7814</Latitude>
    <Longitude>35.2277</Longitude>
    <MaxDistance />
  </Volunteer>
  <Volunteer>
    <Id>243326782</Id>
    <FullName>Beni Mus</FullName>
    <PhoneNumber>0536040394</PhoneNumber>
    <Email>cbh@gmail.com</Email>
    <Job>Donater</Job>
    <Active>false</Active>
    <Distance>Air</Distance>
    <VolAddress>Brazil 101,Jerusalem, Israel</VolAddress>
    <Latitude>31.7859</Latitude>
    <Longitude>35.209</Longitude>
    <MaxDistance />
  </Volunteer>
  <Volunteer>
    <Id>303105647</Id>
    <FullName>Beti Bam</FullName>
    <PhoneNumber>0587891398</PhoneNumber>
    <Email>bamb@g.jct.ac.il</Email>
    <Job>Donater</Job>
    <Active>false</Active>
    <Distance>Air</Distance>
    <VolAddress>Nechama 32,Jerusalem, Israel</VolAddress>
    <Latitude>31.779</Latitude>
    <Longitude>35.2201</Longitude>
    <MaxDistance />
  </Volunteer>
  <Volunteer>
    <Id>312781933</Id>
    <FullName>Avi Ron</FullName>
    <PhoneNumber>0583485799</PhoneNumber>
    <Email>54avi@gmail.com</Email>
    <Job>Donater</Job>
    <Active>false</Active>
    <Distance>Air</Distance>
    <VolAddress>Bayit Va-Gan 46,Jerusalem, Israel</VolAddress>
    <Latitude>31.7798</Latitude>
    <Longitude>35.228</Longitude>
    <MaxDistance />
  </Volunteer>
  <Volunteer>
    <Id>278993522</Id>
    <FullName>Gila Zahav</FullName>
    <PhoneNumber>0538189048</PhoneNumber>
    <Email>gila43@walla.co.il</Email>
    <Job>Donater</Job>
    <Active>false</Active>
    <Distance>Car</Distance>
    <VolAddress>Ha-Pisga 90,Jerusalem, Israel</VolAddress>
    <Latitude>31.7742</Latitude>
    <Longitude>35.2116</Longitude>
    <MaxDistance />
  </Volunteer>
  <Volunteer>
    <Id>231036492</Id>
    <FullName>Ram Kol</FullName>
    <PhoneNumber>0533814259</PhoneNumber>
    <Email>rkol@gmail.com</Email>
    <Job>Manager</Job>
    <Active>true</Active>
    <Distance>Car</Distance>
    <VolAddress>Bar-Lev 119,Jerusalem, Israel</VolAddress>
    <Latitude>31.7725</Latitude>
    <Longitude>35.2212</Longitude>
    <MaxDistance />
  </Volunteer>
  <Volunteer>
    <Id>274964873</Id>
    <FullName>Chani Chaim</FullName>
    <PhoneNumber>0529926550</PhoneNumber>
    <Email>chch@gmail.com</Email>
    <Job>Manager</Job>
    <Active>false</Active>
    <Distance>Air</Distance>
    <VolAddress>Najara 19,Jerusalem, Israel</VolAddress>
    <Latitude>31.7633</Latitude>
    <Longitude>35.2083</Longitude>
    <MaxDistance />
  </Volunteer>
  <Volunteer>
    <Id>248918666</Id>
    <FullName>Poli Din</FullName>
    <PhoneNumber>0581594092</PhoneNumber>
    <Email>poli@gmail.com</Email>
    <Job>Manager</Job>
    <Active>true</Active>
    <Distance>Walking</Distance>
    <VolAddress>Agron 5,Jerusalem, Israel</VolAddress>
    <Latitude>31.7808</Latitude>
    <Longitude>35.2139</Longitude>
    <MaxDistance />
  </Volunteer>
  <Volunteer>
    <Id>283252658</Id>
    <FullName>Maya Gido</FullName>
    <PhoneNumber>0581798041</PhoneNumber>
    <Email>mgido@gmail.com</Email>
    <Job>Donater</Job>
    <Active>false</Active>
    <Distance>Air</Distance>
    <VolAddress>Hilel 67,Jerusalem, Israel</VolAddress>
    <Latitude>31.7723</Latitude>
    <Longitude>35.2134</Longitude>
    <MaxDistance />
  </Volunteer>
  <Volunteer>
    <Id>258351667</Id>
    <FullName>Ori Gami</FullName>
    <PhoneNumber>0509888680</PhoneNumber>
    <Email>ogami@g.jct.ac.il</Email>
    <Job>Manager</Job>
    <Active>false</Active>
    <Distance>Walking</Distance>
    <VolAddress>Iben-Ezra 27,Jerusalem, Israel</VolAddress>
    <Latitude>31.7727</Latitude>
    <Longitude>35.2128</Longitude>
    <MaxDistance />
  </Volunteer>
  <Volunteer>
    <Id>372831149</Id>
    <FullName>Dina Barzily</FullName>
    <PhoneNumber>0532861615</PhoneNumber>
    <Email>barzilay@gmail.com</Email>
    <Job>Manager</Job>
    <Active>false</Active>
    <Distance>Car</Distance>
    <VolAddress>Rivka 118,Jerusalem, Israel</VolAddress>
    <Latitude>31.7731</Latitude>
    <Longitude>35.2123</Longitude>
    <MaxDistance />
  </Volunteer>
  <Volunteer>
    <Id>256664772</Id>
    <FullName>Moise Simon</FullName>
    <PhoneNumber>0531340422</PhoneNumber>
    <Email>Simoni98@walla.co.il</Email>
    <Job>Manager</Job>
    <Active>true</Active>
    <Distance>Car</Distance>
    <VolAddress>Daniel 41,Jerusalem, Israel</VolAddress>
    <Latitude>31.7756</Latitude>
    <Longitude>35.2167</Longitude>
    <MaxDistance />
  </Volunteer>
  <Volunteer>
    <Id>348061888</Id>
    <FullName>Ran Amitz</FullName>
    <PhoneNumber>0523328958</PhoneNumber>
    <Email>rAmitz@g.jct.ac.il</Email>
    <Job>Manager</Job>
    <Active>false</Active>
    <Distance>Walking</Distance>
    <VolAddress>Ha-Sigalit 6,Jerusalem, Israel</VolAddress>
    <Latitude>31.7664</Latitude>
    <Longitude>35.215</Longitude>
    <MaxDistance />
  </Volunteer>
  <Volunteer>
    <Id>332291459</Id>
    <FullName>Nurit Lady</FullName>
    <PhoneNumber>0524936502</PhoneNumber>
    <Email>perach@gmail.com</Email>
    <Job>Manager</Job>
    <Active>false</Active>
    <Distance>Walking</Distance>
    <VolAddress>Dagan 5,Jerusalem, Israel</VolAddress>
    <Latitude>31.765</Latitude>
    <Longitude>35.2143</Longitude>
    <MaxDistance />
  </Volunteer>
  <Volunteer>
    <Id>298695198</Id>
    <FullName>Jonathan Shapira</FullName>
    <PhoneNumber>0582779126</PhoneNumber>
    <Email>jShapira@g.jct.ac.il</Email>
    <Job>Donater</Job>
    <Active>true</Active>
    <Distance>Car</Distance>
    <VolAddress>Shmuel Hanavi 20, Jerusalem, Israel</VolAddress>
    <Latitude>31.8017</Latitude>
    <Longitude>35.2171</Longitude>
    <MaxDistance />
  </Volunteer>
</ArrayOfVolunteers>