<?xml version="1.0" encoding="utf-8"?>
<ArrayOfVolunteers>
  <Volunteer>
    <Id>293280574</Id>
    <FullName>Amit Nakesh</FullName>
    <PhoneNumber>0506131979</PhoneNumber>
    <Email>amit234@gmail.com</Email>
    <Job>Donater</Job>
    <Active>true</Active>
    <Distance>Walking</Distance>
    <VolAddress>Ha-Narkis 3,Jerusalem, Israel</VolAddress>
    <Latitude>31.7771</Latitude>
    <Longitude>35.2255</Longitude>
    <MaxDistance />
  </Volunteer>
  <Volunteer>
    <Id>249520701</Id>
    <FullName>Nir Kuda</FullName>
    <PhoneNumber>0527330312</PhoneNumber>
    <Email>nirkush@walla.co.il</Email>
    <Job>Manager</Job>
    <Active>true</Active>
    <Distance>Car</Distance>
    <VolAddress>Jaffa 210,Jerusalem, Israel</VolAddress>
    <Latitude>31.7814</Latitude>
    <Longitude>35.2277</Longitude>
    <MaxDistance />
  </Volunteer>
  <Volunteer>
    <Id>392257051</Id>
    <FullName>Beni Mus</FullName>
    <PhoneNumber>0506350341</PhoneNumber>
    <Email>cbh@walla.co.il</Email>
    <Job>Donater</Job>
    <Active>false</Active>
    <Distance>Car</Distance>
    <VolAddress>Brazil 101,Jerusalem, Israel</VolAddress>
    <Latitude>31.7859</Latitude>
    <Longitude>35.209</Longitude>
    <MaxDistance />
  </Volunteer>
  <Volunteer>
    <Id>279870414</Id>
    <FullName>Beti Bam</FullName>
    <PhoneNumber>0505978791</PhoneNumber>
    <Email>bamb@gmail.com</Email>
    <Job>Donater</Job>
    <Active>false</Active>
    <Distance>Car</Distance>
    <VolAddress>Nechama 32,Jerusalem, Israel</VolAddress>
    <Latitude>31.779</Latitude>
    <Longitude>35.2201</Longitude>
    <MaxDistance />
  </Volunteer>
  <Volunteer>
    <Id>259520005</Id>
    <FullName>Avi Ron</FullName>
    <PhoneNumber>0525987418</PhoneNumber>
    <Email>avi54@gmail.com</Email>
    <Job>Manager</Job>
    <Active>true</Active>
    <Distance>Car</Distance>
    <VolAddress>Bayit Va-Gan 46,Jerusalem, Israel</VolAddress>
    <Latitude>31.7798</Latitude>
    <Longitude>35.228</Longitude>
    <MaxDistance />
  </Volunteer>
  <Volunteer>
    <Id>327148649</Id>
    <FullName>Gila Zahav</FullName>
    <PhoneNumber>0527519953</PhoneNumber>
    <Email>gila43@walla.co.il</Email>
    <Job>Donater</Job>
    <Active>true</Active>
    <Distance>Car</Distance>
    <VolAddress>Ha-Pisga 90,Jerusalem, Israel</VolAddress>
    <Latitude>31.7742</Latitude>
    <Longitude>35.2116</Longitude>
    <MaxDistance />
  </Volunteer>
  <Volunteer>
    <Id>366159020</Id>
    <FullName>Ram Kol</FullName>
    <PhoneNumber>0527056108</PhoneNumber>
    <Email>rkol@gmail.com</Email>
    <Job>Donater</Job>
    <Active>true</Active>
    <Distance>Car</Distance>
    <VolAddress>Bar-Lev 119,Jerusalem, Israel</VolAddress>
    <Latitude>31.7725</Latitude>
    <Longitude>35.2212</Longitude>
    <MaxDistance />
  </Volunteer>
  <Volunteer>
    <Id>237510649</Id>
    <FullName>Chani Chaim</FullName>
    <PhoneNumber>0588783814</PhoneNumber>
    <Email>chch@walla.co.il</Email>
    <Job>Donater</Job>
    <Active>false</Active>
    <Distance>Car</Distance>
    <VolAddress>Najara 19,Jerusalem, Israel</VolAddress>
    <Latitude>31.7633</Latitude>
    <Longitude>35.2083</Longitude>
    <MaxDistance />
  </Volunteer>
  <Volunteer>
    <Id>211619457</Id>
    <FullName>Poli Din</FullName>
    <PhoneNumber>0527611418</PhoneNumber>
    <Email>poli@gmail.com</Email>
    <Job>Manager</Job>
    <Active>false</Active>
    <Distance>Air</Distance>
    <VolAddress>Agron 5,Jerusalem, Israel</VolAddress>
    <Latitude>31.7808</Latitude>
    <Longitude>35.2139</Longitude>
    <MaxDistance />
  </Volunteer>
  <Volunteer>
    <Id>280927940</Id>
    <FullName>Maya Gido</FullName>
    <PhoneNumber>0587340384</PhoneNumber>
    <Email>mgido@g.jct.ac.il</Email>
    <Job>Manager</Job>
    <Active>true</Active>
    <Distance>Walking</Distance>
    <VolAddress>Hilel 67,Jerusalem, Israel</VolAddress>
    <Latitude>31.7723</Latitude>
    <Longitude>35.2134</Longitude>
    <MaxDistance />
  </Volunteer>
  <Volunteer>
    <Id>296636980</Id>
    <FullName>Ori Gami</FullName>
    <PhoneNumber>0589597920</PhoneNumber>
    <Email>ogami@g.jct.ac.il</Email>
    <Job>Donater</Job>
    <Active>true</Active>
    <Distance>Car</Distance>
    <VolAddress>Iben-Ezra 27,Jerusalem, Israel</VolAddress>
    <Latitude>31.7727</Latitude>
    <Longitude>35.2128</Longitude>
    <MaxDistance />
  </Volunteer>
  <Volunteer>
    <Id>379171705</Id>
    <FullName>Dina Barzily</FullName>
    <PhoneNumber>0539477227</PhoneNumber>
    <Email>barzilay@gmail.com</Email>
    <Job>Manager</Job>
    <Active>true</Active>
    <Distance>Car</Distance>
    <VolAddress>Rivka 118,Jerusalem, Israel</VolAddress>
    <Latitude>31.7731</Latitude>
    <Longitude>35.2123</Longitude>
    <MaxDistance />
  </Volunteer>
  <Volunteer>
    <Id>201454154</Id>
    <FullName>Moise Kattan</FullName>
    <PhoneNumber>0585180191</PhoneNumber>
    <Email>Kattani98@g.jct.ac.il</Email>
    <Job>Donater</Job>
    <Active>true</Active>
    <Distance>Walking</Distance>
    <VolAddress>Daniel 41,Jerusalem, Israel</VolAddress>
    <Latitude>31.7756</Latitude>
    <Longitude>35.2167</Longitude>
    <MaxDistance />
  </Volunteer>
  <Volunteer>
    <Id>215373598</Id>
    <FullName>Ran Amitz</FullName>
    <PhoneNumber>0525290179</PhoneNumber>
    <Email>rAmitz@gmail.com</Email>
    <Job>Donater</Job>
    <Active>true</Active>
    <Distance>Air</Distance>
    <VolAddress>Ha-Sigalit 6,Jerusalem, Israel</VolAddress>
    <Latitude>31.7664</Latitude>
    <Longitude>35.215</Longitude>
    <MaxDistance />
  </Volunteer>
  <Volunteer>
    <Id>336025358</Id>
    <FullName>Nurit Lady</FullName>
    <PhoneNumber>0531965372</PhoneNumber>
    <Email>perach@walla.co.il</Email>
    <Job>Manager</Job>
    <Active>true</Active>
    <Distance>Walking</Distance>
    <VolAddress>Dagan 5,Jerusalem, Israel</VolAddress>
    <Latitude>31.765</Latitude>
    <Longitude>35.2143</Longitude>
    <MaxDistance />
  </Volunteer>
  <Volunteer>
    <Id>344055371</Id>
    <FullName>Jonathan Shapira</FullName>
    <PhoneNumber>0531566775</PhoneNumber>
    <Email>jShapira@g.jct.ac.il</Email>
    <Job>Donater</Job>
    <Active>true</Active>
    <Distance>Walking</Distance>
    <VolAddress>Shmuel Hanavi 20, Jerusalem, Israel</VolAddress>
    <Latitude>31.8017</Latitude>
    <Longitude>35.2171</Longitude>
    <MaxDistance />
  </Volunteer>
</ArrayOfVolunteers>