<?xml version="1.0" encoding="utf-8"?>
<ArrayOfVolunteers>
  <Volunteer>
    <Id>369791983</Id>
    <FullName>Amit Nakesh</FullName>
    <PhoneNumber>0532538428</PhoneNumber>
    <Email>amit234@walla.co.il</Email>
    <Job>Volunteer</Job>
    <Active>true</Active>
    <Distance>Walking</Distance>
    <VolAddress>Ha-Narkis 3,Jerusalem, Israel</VolAddress>
    <Latitude>31.7771</Latitude>
    <Longitude>35.2255</Longitude>
    <MaxDistance />
  </Volunteer>
  <Volunteer>
    <Id>393648191</Id>
    <FullName>Nir Kuda</FullName>
    <PhoneNumber>0509856218</PhoneNumber>
    <Email>nirkush@gmail.com</Email>
    <Job>Volunteer</Job>
    <Active>true</Active>
    <Distance>Car</Distance>
    <VolAddress>Jaffa 210,Jerusalem, Israel</VolAddress>
    <Latitude>31.7814</Latitude>
    <Longitude>35.2277</Longitude>
    <MaxDistance />
  </Volunteer>
  <Volunteer>
    <Id>312704554</Id>
    <FullName>Beni Mus</FullName>
    <PhoneNumber>0531088243</PhoneNumber>
    <Email>cbh@g.jct.ac.il</Email>
    <Job>Manager</Job>
    <Active>true</Active>
    <Distance>Air</Distance>
    <VolAddress>Brazil 101,Jerusalem, Israel</VolAddress>
    <Latitude>31.7859</Latitude>
    <Longitude>35.209</Longitude>
    <MaxDistance />
  </Volunteer>
  <Volunteer>
    <Id>271120313</Id>
    <FullName>Beti Bam</FullName>
    <PhoneNumber>0522838478</PhoneNumber>
    <Email>bamb@walla.co.il</Email>
    <Job>Manager</Job>
    <Active>true</Active>
    <Distance>Walking</Distance>
    <VolAddress>Nechama 32,Jerusalem, Israel</VolAddress>
    <Latitude>31.779</Latitude>
    <Longitude>35.2201</Longitude>
    <MaxDistance />
  </Volunteer>
  <Volunteer>
    <Id>281154823</Id>
    <FullName>Avi Ron</FullName>
    <PhoneNumber>0536841636</PhoneNumber>
    <Email>avi54@walla.co.il</Email>
    <Job>Volunteer</Job>
    <Active>true</Active>
    <Distance>Air</Distance>
    <VolAddress>Bayit Va-Gan 46,Jerusalem, Israel</VolAddress>
    <Latitude>31.7798</Latitude>
    <Longitude>35.228</Longitude>
    <MaxDistance />
  </Volunteer>
  <Volunteer>
    <Id>293994117</Id>
    <FullName>Gila Zahav</FullName>
    <PhoneNumber>0532207659</PhoneNumber>
    <Email>gila43@g.jct.ac.il</Email>
    <Job>Volunteer</Job>
    <Active>false</Active>
    <Distance>Walking</Distance>
    <VolAddress>Ha-Pisga 90,Jerusalem, Israel</VolAddress>
    <Latitude>31.7742</Latitude>
    <Longitude>35.2116</Longitude>
    <MaxDistance>4.672184915754697</MaxDistance>
  </Volunteer>
  <Volunteer>
    <Id>226875672</Id>
    <FullName>Ram Kol</FullName>
    <PhoneNumber>0539657837</PhoneNumber>
    <Email>rkol@g.jct.ac.il</Email>
    <Job>Manager</Job>
    <Active>false</Active>
    <Distance>Walking</Distance>
    <VolAddress>Bar-Lev 119,Jerusalem, Israel</VolAddress>
    <Latitude>31.7725</Latitude>
    <Longitude>35.2212</Longitude>
    <MaxDistance />
  </Volunteer>
  <Volunteer>
    <Id>233555093</Id>
    <FullName>Chani Chaim</FullName>
    <PhoneNumber>0503774426</PhoneNumber>
    <Email>chch@gmail.com</Email>
    <Job>Volunteer</Job>
    <Active>true</Active>
    <Distance>Air</Distance>
    <VolAddress>Najara 19,Jerusalem, Israel</VolAddress>
    <Latitude>31.7633</Latitude>
    <Longitude>35.2083</Longitude>
    <MaxDistance />
  </Volunteer>
  <Volunteer>
    <Id>240523837</Id>
    <FullName>Poli Din</FullName>
    <PhoneNumber>0582435818</PhoneNumber>
    <Email>poli@gmail.com</Email>
    <Job>Volunteer</Job>
    <Active>true</Active>
    <Distance>Air</Distance>
    <VolAddress>Agron 5,Jerusalem, Israel</VolAddress>
    <Latitude>31.7808</Latitude>
    <Longitude>35.2139</Longitude>
    <MaxDistance />
  </Volunteer>
  <Volunteer>
    <Id>380494575</Id>
    <FullName>Maya Gido</FullName>
    <PhoneNumber>0531199752</PhoneNumber>
    <Email>mgido@g.jct.ac.il</Email>
    <Job>Manager</Job>
    <Active>true</Active>
    <Distance>Air</Distance>
    <VolAddress>Hilel 67,Jerusalem, Israel</VolAddress>
    <Latitude>31.7723</Latitude>
    <Longitude>35.2134</Longitude>
    <MaxDistance>1.6003144700916687</MaxDistance>
  </Volunteer>
  <Volunteer>
    <Id>251427852</Id>
    <FullName>Ori Gami</FullName>
    <PhoneNumber>0531124497</PhoneNumber>
    <Email>ogami@g.jct.ac.il</Email>
    <Job>Volunteer</Job>
    <Active>true</Active>
    <Distance>Walking</Distance>
    <VolAddress>Iben-Ezra 27,Jerusalem, Israel</VolAddress>
    <Latitude>31.7727</Latitude>
    <Longitude>35.2128</Longitude>
    <MaxDistance />
  </Volunteer>
  <Volunteer>
    <Id>356675496</Id>
    <FullName>Dina Barzily</FullName>
    <PhoneNumber>0509106134</PhoneNumber>
    <Email>barzilay@g.jct.ac.il</Email>
    <Job>Volunteer</Job>
    <Active>true</Active>
    <Distance>Air</Distance>
    <VolAddress>Rivka 118,Jerusalem, Israel</VolAddress>
    <Latitude>31.7731</Latitude>
    <Longitude>35.2123</Longitude>
    <MaxDistance>0.8872820672483117</MaxDistance>
  </Volunteer>
  <Volunteer>
    <Id>277400404</Id>
    <FullName>Moise Kattan</FullName>
    <PhoneNumber>0521633064</PhoneNumber>
    <Email>Kattani98@walla.co.il</Email>
    <Job>Volunteer</Job>
    <Active>true</Active>
    <Distance>Walking</Distance>
    <VolAddress>Daniel 41,Jerusalem, Israel</VolAddress>
    <Latitude>31.7756</Latitude>
    <Longitude>35.2167</Longitude>
    <MaxDistance>3.855647939714096</MaxDistance>
  </Volunteer>
  <Volunteer>
    <Id>233584515</Id>
    <FullName>Ran Amitz</FullName>
    <PhoneNumber>0525667357</PhoneNumber>
    <Email>rAmitz@g.jct.ac.il</Email>
    <Job>Volunteer</Job>
    <Active>true</Active>
    <Distance>Walking</Distance>
    <VolAddress>Ha-Sigalit 6,Jerusalem, Israel</VolAddress>
    <Latitude>31.7664</Latitude>
    <Longitude>35.215</Longitude>
    <MaxDistance>1.5370994153998363</MaxDistance>
  </Volunteer>
  <Volunteer>
    <Id>386706873</Id>
    <FullName>Nurit Lady</FullName>
    <PhoneNumber>0536853262</PhoneNumber>
    <Email>perach@gmail.com</Email>
    <Job>Volunteer</Job>
    <Active>true</Active>
    <Distance>Air</Distance>
    <VolAddress>Dagan 5,Jerusalem, Israel</VolAddress>
    <Latitude>31.765</Latitude>
    <Longitude>35.2143</Longitude>
    <MaxDistance />
  </Volunteer>
  <Volunteer>
    <Id>351591771</Id>
    <FullName>Jonathan Shapira</FullName>
    <PhoneNumber>0533252250</PhoneNumber>
    <Email>jShapira@gmail.com</Email>
    <Job>Volunteer</Job>
    <Active>true</Active>
    <Distance>Walking</Distance>
    <VolAddress>Shmuel Hanavi 20, Jerusalem, Israel</VolAddress>
    <Latitude>31.8017</Latitude>
    <Longitude>35.2171</Longitude>
    <MaxDistance>3.7909611732439656</MaxDistance>
  </Volunteer>
  <Volunteer>
    <Id>213662554</Id>
    <FullName>Tehila Kufeld</FullName>
    <PhoneNumber>0525256500</PhoneNumber>
    <Email>gukvgukv@gmail.com</Email>
    <Job>Manager</Job>
    <Active>true</Active>
    <Distance>Air</Distance>
    <VolAddress>Dagan 5,Jerusalem, Israel</VolAddress>
    <Latitude>31.7394234</Latitude>
    <Longitude>35.1827337</Longitude>
    <MaxDistance />
  </Volunteer>
  <Volunteer>
    <Id>213899743</Id>
    <FullName>Ayelet Shilo</FullName>
    <PhoneNumber>0586313990</PhoneNumber>
    <Email>thka841@gmail.com</Email>
    <Job>Manager</Job>
    <Active>true</Active>
    <Distance>Air</Distance>
    <VolAddress>Dagan 5,Jerusalem, Israel</VolAddress>
    <Latitude>31.7394234</Latitude>
    <Longitude>35.1827337</Longitude>
    <MaxDistance />
  </Volunteer>
</ArrayOfVolunteers>