<?xml version="1.0" encoding="utf-8"?>
<ArrayOfVolunteers>
  <Volunteer>
    <Id>274321405</Id>
    <FullName>Amit Nakesh</FullName>
    <PhoneNumber>0509364404</PhoneNumber>
    <Email>amit234@walla.co.il</Email>
    <Job>Manager</Job>
    <Active>false</Active>
    <Distance>Air</Distance>
    <VolAddress>Ha-Narkis 3,Jerusalem, Israel</VolAddress>
    <Latitude>31.7771</Latitude>
    <Longitude>35.2255</Longitude>
    <MaxDistance />
  </Volunteer>
  <Volunteer>
    <Id>282305020</Id>
    <FullName>Nir Kuda</FullName>
    <PhoneNumber>0501039870</PhoneNumber>
    <Email>nirkush@gmail.com</Email>
    <Job>Donater</Job>
    <Active>false</Active>
    <Distance>Air</Distance>
    <VolAddress>Jaffa 210,Jerusalem, Israel</VolAddress>
    <Latitude>31.7814</Latitude>
    <Longitude>35.2277</Longitude>
    <MaxDistance />
  </Volunteer>
  <Volunteer>
    <Id>237419338</Id>
    <FullName>Beni Mus</FullName>
    <PhoneNumber>0538101646</PhoneNumber>
    <Email>cbh@walla.co.il</Email>
    <Job>Manager</Job>
    <Active>false</Active>
    <Distance>Walking</Distance>
    <VolAddress>Brazil 101,Jerusalem, Israel</VolAddress>
    <Latitude>31.7859</Latitude>
    <Longitude>35.209</Longitude>
    <MaxDistance />
  </Volunteer>
  <Volunteer>
    <Id>248650410</Id>
    <FullName>Beti Bam</FullName>
    <PhoneNumber>0582445445</PhoneNumber>
    <Email>bamb@g.jct.ac.il</Email>
    <Job>Manager</Job>
    <Active>true</Active>
    <Distance>Car</Distance>
    <VolAddress>Nechama 32,Jerusalem, Israel</VolAddress>
    <Latitude>31.779</Latitude>
    <Longitude>35.2201</Longitude>
    <MaxDistance />
  </Volunteer>
  <Volunteer>
    <Id>294036082</Id>
    <FullName>Avi Ron</FullName>
    <PhoneNumber>0583816352</PhoneNumber>
    <Email>54avi@walla.co.il</Email>
    <Job>Donater</Job>
    <Active>true</Active>
    <Distance>Car</Distance>
    <VolAddress>Bayit Va-Gan 46,Jerusalem, Israel</VolAddress>
    <Latitude>31.7798</Latitude>
    <Longitude>35.228</Longitude>
    <MaxDistance />
  </Volunteer>
  <Volunteer>
    <Id>258804822</Id>
    <FullName>Gila Zahav</FullName>
    <PhoneNumber>0532353099</PhoneNumber>
    <Email>gila43@gmail.com</Email>
    <Job>Donater</Job>
    <Active>false</Active>
    <Distance>Car</Distance>
    <VolAddress>Ha-Pisga 90,Jerusalem, Israel</VolAddress>
    <Latitude>31.7742</Latitude>
    <Longitude>35.2116</Longitude>
    <MaxDistance />
  </Volunteer>
  <Volunteer>
    <Id>348543364</Id>
    <FullName>Ram Kol</FullName>
    <PhoneNumber>0529063784</PhoneNumber>
    <Email>rkol@gmail.com</Email>
    <Job>Donater</Job>
    <Active>true</Active>
    <Distance>Car</Distance>
    <VolAddress>Bar-Lev 119,Jerusalem, Israel</VolAddress>
    <Latitude>31.7725</Latitude>
    <Longitude>35.2212</Longitude>
    <MaxDistance />
  </Volunteer>
  <Volunteer>
    <Id>230771677</Id>
    <FullName>Chani Chaim</FullName>
    <PhoneNumber>0581918970</PhoneNumber>
    <Email>chch@gmail.com</Email>
    <Job>Manager</Job>
    <Active>false</Active>
    <Distance>Car</Distance>
    <VolAddress>Najara 19,Jerusalem, Israel</VolAddress>
    <Latitude>31.7633</Latitude>
    <Longitude>35.2083</Longitude>
    <MaxDistance />
  </Volunteer>
  <Volunteer>
    <Id>368857546</Id>
    <FullName>Poli Din</FullName>
    <PhoneNumber>0503672876</PhoneNumber>
    <Email>poli@walla.co.il</Email>
    <Job>Donater</Job>
    <Active>true</Active>
    <Distance>Car</Distance>
    <VolAddress>Agron 5,Jerusalem, Israel</VolAddress>
    <Latitude>31.7808</Latitude>
    <Longitude>35.2139</Longitude>
    <MaxDistance />
  </Volunteer>
  <Volunteer>
    <Id>342684271</Id>
    <FullName>Maya Gido</FullName>
    <PhoneNumber>0539139764</PhoneNumber>
    <Email>mgido@walla.co.il</Email>
    <Job>Donater</Job>
    <Active>false</Active>
    <Distance>Air</Distance>
    <VolAddress>Hilel 67,Jerusalem, Israel</VolAddress>
    <Latitude>31.7723</Latitude>
    <Longitude>35.2134</Longitude>
    <MaxDistance />
  </Volunteer>
  <Volunteer>
    <Id>391733912</Id>
    <FullName>Ori Gami</FullName>
    <PhoneNumber>0585844550</PhoneNumber>
    <Email>ogami@gmail.com</Email>
    <Job>Donater</Job>
    <Active>true</Active>
    <Distance>Walking</Distance>
    <VolAddress>Iben-Ezra 27,Jerusalem, Israel</VolAddress>
    <Latitude>31.7727</Latitude>
    <Longitude>35.2128</Longitude>
    <MaxDistance />
  </Volunteer>
  <Volunteer>
    <Id>306350323</Id>
    <FullName>Dina Barzily</FullName>
    <PhoneNumber>0525417317</PhoneNumber>
    <Email>barzilay@walla.co.il</Email>
    <Job>Manager</Job>
    <Active>true</Active>
    <Distance>Air</Distance>
    <VolAddress>Rivka 118,Jerusalem, Israel</VolAddress>
    <Latitude>31.7731</Latitude>
    <Longitude>35.2123</Longitude>
    <MaxDistance />
  </Volunteer>
  <Volunteer>
    <Id>340908995</Id>
    <FullName>Moise Simon</FullName>
    <PhoneNumber>0582552233</PhoneNumber>
    <Email>Simoni98@walla.co.il</Email>
    <Job>Manager</Job>
    <Active>false</Active>
    <Distance>Car</Distance>
    <VolAddress>Daniel 41,Jerusalem, Israel</VolAddress>
    <Latitude>31.7756</Latitude>
    <Longitude>35.2167</Longitude>
    <MaxDistance />
  </Volunteer>
  <Volunteer>
    <Id>217622505</Id>
    <FullName>Ran Amitz</FullName>
    <PhoneNumber>0581727216</PhoneNumber>
    <Email>rAmitz@gmail.com</Email>
    <Job>Manager</Job>
    <Active>false</Active>
    <Distance>Walking</Distance>
    <VolAddress>Ha-Sigalit 6,Jerusalem, Israel</VolAddress>
    <Latitude>31.7664</Latitude>
    <Longitude>35.215</Longitude>
    <MaxDistance />
  </Volunteer>
  <Volunteer>
    <Id>309115566</Id>
    <FullName>Nurit Lady</FullName>
    <PhoneNumber>0537614761</PhoneNumber>
    <Email>perach@walla.co.il</Email>
    <Job>Donater</Job>
    <Active>false</Active>
    <Distance>Car</Distance>
    <VolAddress>Dagan 5,Jerusalem, Israel</VolAddress>
    <Latitude>31.765</Latitude>
    <Longitude>35.2143</Longitude>
    <MaxDistance />
  </Volunteer>
  <Volunteer>
    <Id>392177234</Id>
    <FullName>Jonathan Shapira</FullName>
    <PhoneNumber>0589507528</PhoneNumber>
    <Email>jShapira@walla.co.il</Email>
    <Job>Manager</Job>
    <Active>false</Active>
    <Distance>Car</Distance>
    <VolAddress>Shmuel Hanavi 20, Jerusalem, Israel</VolAddress>
    <Latitude>31.8017</Latitude>
    <Longitude>35.2171</Longitude>
    <MaxDistance />
  </Volunteer>
</ArrayOfVolunteers>