<?xml version="1.0" encoding="utf-8"?>
<ArrayOfVolunteers>
  <Volunteer>
    <Id>364704833</Id>
    <FullName>Amit Nakesh</FullName>
    <PhoneNumber>0504580519</PhoneNumber>
    <Email>amit234@gmail.com</Email>
    <Password>)v5466O6</Password>
    <Job>Volunteer</Job>
    <Active>true</Active>
    <Distance>Walking</Distance>
    <VolAddress>Ha-Narkis 3,Jerusalem, Israel</VolAddress>
    <Latitude>31.7771</Latitude>
    <Longitude>35.2255</Longitude>
    <MaxDistance />
  </Volunteer>
  <Volunteer>
    <Id>346868482</Id>
    <FullName>Nir Kuda</FullName>
    <PhoneNumber>0501764401</PhoneNumber>
    <Email>nirkush@gmail.com</Email>
    <Password>2M89r!79</Password>
    <Job>Volunteer</Job>
    <Active>true</Active>
    <Distance>Car</Distance>
    <VolAddress>Jaffa 210,Jerusalem, Israel</VolAddress>
    <Latitude>31.7814</Latitude>
    <Longitude>35.2277</Longitude>
    <MaxDistance>2.5826996784192247</MaxDistance>
  </Volunteer>
  <Volunteer>
    <Id>385836598</Id>
    <FullName>Beni Mus</FullName>
    <PhoneNumber>0585493309</PhoneNumber>
    <Email>cbh@walla.co.il</Email>
    <Password>626#C92j</Password>
    <Job>Volunteer</Job>
    <Active>true</Active>
    <Distance>Air</Distance>
    <VolAddress>Brazil 101,Jerusalem, Israel</VolAddress>
    <Latitude>31.7859</Latitude>
    <Longitude>35.209</Longitude>
    <MaxDistance />
  </Volunteer>
  <Volunteer>
    <Id>314787409</Id>
    <FullName>Beti Bam</FullName>
    <PhoneNumber>0536022025</PhoneNumber>
    <Email>bamb@g.jct.ac.il</Email>
    <Password>8447P#9b</Password>
    <Job>Volunteer</Job>
    <Active>true</Active>
    <Distance>Car</Distance>
    <VolAddress>Nechama 32,Jerusalem, Israel</VolAddress>
    <Latitude>31.779</Latitude>
    <Longitude>35.2201</Longitude>
    <MaxDistance>2.1477913020432693</MaxDistance>
  </Volunteer>
  <Volunteer>
    <Id>266913581</Id>
    <FullName>Avi Ron</FullName>
    <PhoneNumber>0531552160</PhoneNumber>
    <Email>avi54@g.jct.ac.il</Email>
    <Password>g91A4)34</Password>
    <Job>Volunteer</Job>
    <Active>true</Active>
    <Distance>Car</Distance>
    <VolAddress>Bayit Va-Gan 46,Jerusalem, Israel</VolAddress>
    <Latitude>31.7798</Latitude>
    <Longitude>35.228</Longitude>
    <MaxDistance />
  </Volunteer>
  <Volunteer>
    <Id>209490903</Id>
    <FullName>Gila Zahav</FullName>
    <PhoneNumber>0531042457</PhoneNumber>
    <Email>gila43@walla.co.il</Email>
    <Password>W4{l5783</Password>
    <Job>Volunteer</Job>
    <Active>true</Active>
    <Distance>Air</Distance>
    <VolAddress>Ha-Pisga 90,Jerusalem, Israel</VolAddress>
    <Latitude>31.7742</Latitude>
    <Longitude>35.2116</Longitude>
    <MaxDistance>1.163109427222393</MaxDistance>
  </Volunteer>
  <Volunteer>
    <Id>365019579</Id>
    <FullName>Ram Kol</FullName>
    <PhoneNumber>0503424709</PhoneNumber>
    <Email>rkol@g.jct.ac.il</Email>
    <Password>X734!81e</Password>
    <Job>Volunteer</Job>
    <Active>true</Active>
    <Distance>Walking</Distance>
    <VolAddress>Bar-Lev 119,Jerusalem, Israel</VolAddress>
    <Latitude>31.7725</Latitude>
    <Longitude>35.2212</Longitude>
    <MaxDistance>4.3983529839565305</MaxDistance>
  </Volunteer>
  <Volunteer>
    <Id>209972850</Id>
    <FullName>Chani Chaim</FullName>
    <PhoneNumber>0588194020</PhoneNumber>
    <Email>chch@walla.co.il</Email>
    <Password>2B3^q227</Password>
    <Job>Volunteer</Job>
    <Active>true</Active>
    <Distance>Car</Distance>
    <VolAddress>Najara 19,Jerusalem, Israel</VolAddress>
    <Latitude>31.7633</Latitude>
    <Longitude>35.2083</Longitude>
    <MaxDistance />
  </Volunteer>
  <Volunteer>
    <Id>392415253</Id>
    <FullName>Poli Din</FullName>
    <PhoneNumber>0522019920</PhoneNumber>
    <Email>poli@walla.co.il</Email>
    <Password>W7w0567&gt;</Password>
    <Job>Volunteer</Job>
    <Active>true</Active>
    <Distance>Air</Distance>
    <VolAddress>Agron 5,Jerusalem, Israel</VolAddress>
    <Latitude>31.7808</Latitude>
    <Longitude>35.2139</Longitude>
    <MaxDistance />
  </Volunteer>
  <Volunteer>
    <Id>212890503</Id>
    <FullName>Maya Gidu</FullName>
    <PhoneNumber>0533955299</PhoneNumber>
    <Email>mgido@walla.co.il</Email>
    <Password>8f46L29"</Password>
    <Job>Volunteer</Job>
    <Active>true</Active>
    <Distance>Car</Distance>
    <VolAddress>Hilel 67,Jerusalem, Israel</VolAddress>
    <Latitude>31.7723</Latitude>
    <Longitude>35.2134</Longitude>
    <MaxDistance>3.8579288227717674</MaxDistance>
  </Volunteer>
  <Volunteer>
    <Id>309864908</Id>
    <FullName>Ori Gami</FullName>
    <PhoneNumber>0582174271</PhoneNumber>
    <Email>ogami@walla.co.il</Email>
    <Password>(58Ht712</Password>
    <Job>Volunteer</Job>
    <Active>true</Active>
    <Distance>Walking</Distance>
    <VolAddress>Iben-Ezra 27,Jerusalem, Israel</VolAddress>
    <Latitude>31.7727</Latitude>
    <Longitude>35.2128</Longitude>
    <MaxDistance>2.9292223142696616</MaxDistance>
  </Volunteer>
  <Volunteer>
    <Id>307888586</Id>
    <FullName>Dina Barzily</FullName>
    <PhoneNumber>0502550438</PhoneNumber>
    <Email>barzilay@g.jct.ac.il</Email>
    <Password>|1cR8120</Password>
    <Job>Volunteer</Job>
    <Active>true</Active>
    <Distance>Air</Distance>
    <VolAddress>Rivka 118,Jerusalem, Israel</VolAddress>
    <Latitude>31.7731</Latitude>
    <Longitude>35.2123</Longitude>
    <MaxDistance>1.490623433549837</MaxDistance>
  </Volunteer>
  <Volunteer>
    <Id>351314117</Id>
    <FullName>Moise Kattan</FullName>
    <PhoneNumber>0536833395</PhoneNumber>
    <Email>Kattani98@gmail.com</Email>
    <Password>n80N17$4</Password>
    <Job>Volunteer</Job>
    <Active>true</Active>
    <Distance>Air</Distance>
    <VolAddress>Daniel 41,Jerusalem, Israel</VolAddress>
    <Latitude>31.7756</Latitude>
    <Longitude>35.2167</Longitude>
    <MaxDistance />
  </Volunteer>
  <Volunteer>
    <Id>398779728</Id>
    <FullName>Ran Amitz</FullName>
    <PhoneNumber>0588309631</PhoneNumber>
    <Email>rAmitz@gmail.com</Email>
    <Password>74Qo1%51</Password>
    <Job>Volunteer</Job>
    <Active>true</Active>
    <Distance>Car</Distance>
    <VolAddress>Ha-Sigalit 6,Jerusalem, Israel</VolAddress>
    <Latitude>31.7664</Latitude>
    <Longitude>35.215</Longitude>
    <MaxDistance>4.244179032768206</MaxDistance>
  </Volunteer>
  <Volunteer>
    <Id>297850174</Id>
    <FullName>Nurit Lady</FullName>
    <PhoneNumber>0506342049</PhoneNumber>
    <Email>perach@g.jct.ac.il</Email>
    <Password>72k917Y}</Password>
    <Job>Volunteer</Job>
    <Active>true</Active>
    <Distance>Walking</Distance>
    <VolAddress>Dagan 5,Jerusalem, Israel</VolAddress>
    <Latitude>31.765</Latitude>
    <Longitude>35.2143</Longitude>
    <MaxDistance>3.459547251604498</MaxDistance>
  </Volunteer>
  <Volunteer>
    <Id>213662554</Id>
    <FullName>Jonathan Shapira</FullName>
    <PhoneNumber>0537511264</PhoneNumber>
    <Email>jShapira@gmail.com</Email>
    <Password>93y$00T2</Password>
    <Job>Manager</Job>
    <Active>true</Active>
    <Distance>Walking</Distance>
    <VolAddress>Shmuel Hanavi 20, Jerusalem, Israel</VolAddress>
    <Latitude>31.8017</Latitude>
    <Longitude>35.2171</Longitude>
    <MaxDistance />
  </Volunteer>
</ArrayOfVolunteers>