<?xml version="1.0" encoding="utf-8"?>
<ArrayOfVolunteers>
  <Volunteer>
    <Id>332466424</Id>
    <FullName>Amit Nakesh</FullName>
    <PhoneNumber>0501345495</PhoneNumber>
    <Email>amit234@g.jct.ac.il</Email>
    <Job>Volunteer</Job>
    <Active>true</Active>
    <Distance>Car</Distance>
    <VolAddress>Ha-Narkis 3,Jerusalem, Israel</VolAddress>
    <Latitude>31.7771</Latitude>
    <Longitude>35.2255</Longitude>
    <MaxDistance />
  </Volunteer>
  <Volunteer>
    <Id>309679256</Id>
    <FullName>Nir Kuda</FullName>
    <PhoneNumber>0539594678</PhoneNumber>
    <Email>nirkush@walla.co.il</Email>
    <Job>Volunteer</Job>
    <Active>false</Active>
    <Distance>Car</Distance>
    <VolAddress>Jaffa 210,Jerusalem, Israel</VolAddress>
    <Latitude>31.7814</Latitude>
    <Longitude>35.2277</Longitude>
    <MaxDistance />
  </Volunteer>
  <Volunteer>
    <Id>234723534</Id>
    <FullName>Beni Mus</FullName>
    <PhoneNumber>0523168229</PhoneNumber>
    <Email>cbh@gmail.com</Email>
    <Job>Volunteer</Job>
    <Active>true</Active>
    <Distance>Car</Distance>
    <VolAddress>Brazil 101,Jerusalem, Israel</VolAddress>
    <Latitude>31.7859</Latitude>
    <Longitude>35.209</Longitude>
    <MaxDistance />
  </Volunteer>
  <Volunteer>
    <Id>361227812</Id>
    <FullName>Beti Bam</FullName>
    <PhoneNumber>0524456455</PhoneNumber>
    <Email>bamb@g.jct.ac.il</Email>
    <Job>Volunteer</Job>
    <Active>false</Active>
    <Distance>Car</Distance>
    <VolAddress>Nechama 32,Jerusalem, Israel</VolAddress>
    <Latitude>31.779</Latitude>
    <Longitude>35.2201</Longitude>
    <MaxDistance />
  </Volunteer>
  <Volunteer>
    <Id>373818061</Id>
    <FullName>Avi Ron</FullName>
    <PhoneNumber>0533531642</PhoneNumber>
    <Email>avi54@walla.co.il</Email>
    <Job>Volunteer</Job>
    <Active>false</Active>
    <Distance>Air</Distance>
    <VolAddress>Bayit Va-Gan 46,Jerusalem, Israel</VolAddress>
    <Latitude>31.7798</Latitude>
    <Longitude>35.228</Longitude>
    <MaxDistance />
  </Volunteer>
  <Volunteer>
    <Id>372128942</Id>
    <FullName>Gila Zahav</FullName>
    <PhoneNumber>0534136688</PhoneNumber>
    <Email>gila43@walla.co.il</Email>
    <Job>Volunteer</Job>
    <Active>false</Active>
    <Distance>Car</Distance>
    <VolAddress>Ha-Pisga 90,Jerusalem, Israel</VolAddress>
    <Latitude>31.7742</Latitude>
    <Longitude>35.2116</Longitude>
    <MaxDistance />
  </Volunteer>
  <Volunteer>
    <Id>393743208</Id>
    <FullName>Ram Kol</FullName>
    <PhoneNumber>0589018087</PhoneNumber>
    <Email>rkol@gmail.com</Email>
    <Job>Volunteer</Job>
    <Active>false</Active>
    <Distance>Walking</Distance>
    <VolAddress>Bar-Lev 119,Jerusalem, Israel</VolAddress>
    <Latitude>31.7725</Latitude>
    <Longitude>35.2212</Longitude>
    <MaxDistance />
  </Volunteer>
  <Volunteer>
    <Id>205039068</Id>
    <FullName>Chani Chaim</FullName>
    <PhoneNumber>0507943150</PhoneNumber>
    <Email>chch@walla.co.il</Email>
    <Job>Volunteer</Job>
    <Active>true</Active>
    <Distance>Car</Distance>
    <VolAddress>Najara 19,Jerusalem, Israel</VolAddress>
    <Latitude>31.7633</Latitude>
    <Longitude>35.2083</Longitude>
    <MaxDistance />
  </Volunteer>
  <Volunteer>
    <Id>217429010</Id>
    <FullName>Poli Din</FullName>
    <PhoneNumber>0587052763</PhoneNumber>
    <Email>poli@g.jct.ac.il</Email>
    <Job>Volunteer</Job>
    <Active>true</Active>
    <Distance>Walking</Distance>
    <VolAddress>Agron 5,Jerusalem, Israel</VolAddress>
    <Latitude>31.7808</Latitude>
    <Longitude>35.2139</Longitude>
    <MaxDistance />
  </Volunteer>
  <Volunteer>
    <Id>202569440</Id>
    <FullName>Maya Gido</FullName>
    <PhoneNumber>0583508240</PhoneNumber>
    <Email>mgido@g.jct.ac.il</Email>
    <Job>Volunteer</Job>
    <Active>false</Active>
    <Distance>Car</Distance>
    <VolAddress>Hilel 67,Jerusalem, Israel</VolAddress>
    <Latitude>31.7723</Latitude>
    <Longitude>35.2134</Longitude>
    <MaxDistance />
  </Volunteer>
  <Volunteer>
    <Id>215188517</Id>
    <FullName>Ori Gami</FullName>
    <PhoneNumber>0586421659</PhoneNumber>
    <Email>ogami@gmail.com</Email>
    <Job>Volunteer</Job>
    <Active>false</Active>
    <Distance>Car</Distance>
    <VolAddress>Iben-Ezra 27,Jerusalem, Israel</VolAddress>
    <Latitude>31.7727</Latitude>
    <Longitude>35.2128</Longitude>
    <MaxDistance />
  </Volunteer>
  <Volunteer>
    <Id>330240813</Id>
    <FullName>Dina Barzily</FullName>
    <PhoneNumber>0536929544</PhoneNumber>
    <Email>barzilay@g.jct.ac.il</Email>
    <Job>Volunteer</Job>
    <Active>true</Active>
    <Distance>Air</Distance>
    <VolAddress>Rivka 118,Jerusalem, Israel</VolAddress>
    <Latitude>31.7731</Latitude>
    <Longitude>35.2123</Longitude>
    <MaxDistance />
  </Volunteer>
  <Volunteer>
    <Id>221250947</Id>
    <FullName>Moise Kattan</FullName>
    <PhoneNumber>0581859410</PhoneNumber>
    <Email>Kattani98@gmail.com</Email>
    <Job>Volunteer</Job>
    <Active>true</Active>
    <Distance>Air</Distance>
    <VolAddress>Daniel 41,Jerusalem, Israel</VolAddress>
    <Latitude>31.7756</Latitude>
    <Longitude>35.2167</Longitude>
    <MaxDistance />
  </Volunteer>
  <Volunteer>
    <Id>337885834</Id>
    <FullName>Ran Amitz</FullName>
    <PhoneNumber>0588604499</PhoneNumber>
    <Email>rAmitz@gmail.com</Email>
    <Job>Manager</Job>
    <Active>false</Active>
    <Distance>Walking</Distance>
    <VolAddress>Ha-Sigalit 6,Jerusalem, Israel</VolAddress>
    <Latitude>31.7664</Latitude>
    <Longitude>35.215</Longitude>
    <MaxDistance />
  </Volunteer>
  <Volunteer>
    <Id>340534189</Id>
    <FullName>Nurit Lady</FullName>
    <PhoneNumber>0524942361</PhoneNumber>
    <Email>perach@walla.co.il</Email>
    <Job>Manager</Job>
    <Active>true</Active>
    <Distance>Car</Distance>
    <VolAddress>Dagan 5,Jerusalem, Israel</VolAddress>
    <Latitude>31.765</Latitude>
    <Longitude>35.2143</Longitude>
    <MaxDistance />
  </Volunteer>
  <Volunteer>
    <Id>253602833</Id>
    <FullName>Jonathan Shapira</FullName>
    <PhoneNumber>0522334693</PhoneNumber>
    <Email>jShapira@gmail.com</Email>
    <Job>Volunteer</Job>
    <Active>true</Active>
    <Distance>Air</Distance>
    <VolAddress>Shmuel Hanavi 20, Jerusalem, Israel</VolAddress>
    <Latitude>31.8017</Latitude>
    <Longitude>35.2171</Longitude>
    <MaxDistance />
  </Volunteer>
</ArrayOfVolunteers>